[
    {
        "name": "Ha Long Bay",
        "category": "Island",
        "city": "Ha Long Bay",
        "state": "Quang Ninh",
        "id": 1001,
        "description": "Thành phố nằm dọc theo bờ vịnh Hạ Long với chiều dài khoảng 50 km",
        "isFeatured": true,
        "isFavorite": true,
        "park": "Viet Nam",
        "coordinates": {
            "longitude": 107.042542,
            "latitude": 20.959902
        },
        "imageName": "VinhHaLong"
    },
    {
        "name": "Hoi An",
        "category": "Featured",
        "city": "Da Nang",
        "state": "Da Nang",
        "id": 1002,
        "description": "Phố cổ Hội An từng là một thương cảng quốc tế sầm uất, gồm những di sản kiến trúc đã có từ hàng trăm năm trước, được UNESCO công nhận là di sản văn hóa thế giới từ năm 1999.",
        "isFeatured": false,
        "isFavorite": false,
        "park": "Viet Nam",
        "coordinates": {
            "longitude": 108.335,
            "latitude": 15.87944
        },
        "imageName": "HoiAn"
    },
    {
        "name": "Phu Quoc",
        "category": "Island",
        "city": "Kien Giang",
        "state": "Kien Giang",
        "id": 1003,
        "description": "Phú Quốc còn được mệnh danh là Đảo Ngọc, là hòn đảo lớn nhất của Việt Nam",
        "isFeatured": false,
        "isFavorite": true,
        "park": "Viet Nam",
        "coordinates": {
            "longitude": 103.95929,
            "latitude": 10.21716
        },
        "imageName": "PhuQuoc"
    },
    {
        "name": "Sa Pa",
        "category": "Plateau",
        "city": "Sa Pa",
        "state": "Sa Pa",
        "id": 1004,
        "description": "Sa Pa là phường trung tâm của thị xã Sa Pa, tỉnh Lào Cai, Việt Nam",
        "isFeatured": true,
        "isFavorite": true,
        "park": "Viet Nam",
        "coordinates": {
            "longitude": 103.84415,
            "latitude": 22.34023
        },
        "imageName": "Sapa"
    },
    {
        "name": "Mui Ne",
        "category": "Plateau",
        "city": "Phan Thiet",
        "state": "Binh Thuan",
        "id": 1005,
        "description": "Mũi Né là một địa danh, tên một mũi biển ở thành phố Phan Thiết, tỉnh Bình Thuận, Việt Nam",
        "isFeatured": false,
        "isFavorite": false,
        "park": "Viet Nam",
        "coordinates": {
            "longitude": 108.10208,
            "latitude": 10.92889
        },
        "imageName": "MuiNe"
    },
    {
        "name": "Nha Trang",
        "category": "Featured",
        "city": "Khanh Hoa",
        "state": "Khanh Hoa",
        "id": 1006,
        "description": "Nha Trang là một thành phố ven biển và là trung tâm chính trị, kinh tế, văn hóa, khoa học kỹ thuật và du lịch",
        "isFeatured": false,
        "isFavorite": false,
        "park": "Viet Nam",
        "coordinates": {
            "longitude": 109.19432,
            "latitude": 12.24507
        },
        "imageName": "NhaTrang"
    },
    {
        "name": "Cu chi tunnel",
        "category": "Featured",
        "city": "Ho Chi Minh",
        "state": "Ho Chi Minh",
        "id": 1007,
        "description": "Củ Chi là một huyện ngoại thành thuộc Thành phố Hồ Chí Minh, Việt Nam.",
        "isFeatured": true,
        "isFavorite": false,
        "park": "Viet Nam",
        "coordinates": {
            "longitude": 106.62965,
            "latitude": 10.82302
        },
        "imageName": "CuChi"
    },
    {
        "name": "Hoan kiem Lakes",
        "category": "Lakes",
        "city": "Ha Noi",
        "state": "Ha Noi",
        "id": 1008,
        "description": "Hồ Hoàn Kiếm còn được gọi là Hồ Gươm là một hồ nước ngọt tự nhiên nằm ở trung tâm thành phố Hà Nội",
        "isFeatured": false,
        "isFavorite": false,
        "park": "Viet Nam",
        "coordinates": {
            "longitude": 105.84117,
            "latitude": 21.0245
        },
        "imageName": "HoHoanKiem"
    },
    {
        "name": "Thien Mu pagoda",
        "category": "Featured",
        "city": "Hue",
        "state": "Hue",
        "id": 1009,
        "description": "Chùa Thiên Mụ hay còn gọi là chùa Linh Mụ là một ngôi chùa cổ nằm trên đồi Hà Khê",
        "isFeatured": false,
        "isFavorite": false,
        "park": "Viet Nam",
        "coordinates": {
            "longitude": 107.59546,
            "latitude": 16.4619
        },
        "imageName": "ThienMu"
    },
    {
        "name": "Quoc Tu Giam Temple",
        "category": "Featured",
        "city": "Ha Noi",
        "state": "Ha Noi",
        "id": 1010,
        "description": "Văn Miếu - Quốc Tử Giám là quần thể di tích đa dạng và phong phú hàng đầu của thủ đô Hà Nội",
        "isFeatured": false,
        "isFavorite": false,
        "park": "Viet Nam",
        "coordinates": {
            "longitude": 105.84117,
            "latitude": 21.0245
        },
        "imageName": "QuocTuGiam"
    },
    {
        "name": "Cat Ba",
        "category": "Island",
        "city": "Hai Phong",
        "state": "Hai Phong",
        "id": 1011,
        "description": "Cát Bà là thị trấn huyện lỵ của huyện Cát Hải, thành phố Hải Phòng, Việt Nam",
        "isFeatured": false,
        "isFavorite": false,
        "park": "Viet Nam",
        "coordinates": {
            "longitude": 106.68345,
            "latitude": 20.86481
        },
        "imageName": "CatBa"
    },
    {
        "name": "Notre Dame Cathedral",
        "category": "Featured",
        "city": "Ho Chi Minh",
        "state": "Ho Chi Minh",
        "id": 1012,
        "description": "Nhà thờ chính tòa Đức Bà Sài Gòn là nhà thờ chính tòa của Tổng giáo phận Thành phố Hồ Chí Minh",
        "isFeatured": true,
        "isFavorite": false,
        "park": "Viet Nam",
        "coordinates": {
            "longitude": 106.62965,
            "latitude": 10.82302
        },
        "imageName": "Notre Dame Cathedral"
    }
]
